{
  "store": [
    {
      "id": 1,
      "name": "代官山 蔦屋書店",
      "zip_code": "T150-0033",
      "address": "東京都渋谷区猿楽町16-15",
      "picture": "https://store.tsite.jp/static_contents/site/tsite/daikanyama/img/og.jpg",
      "longitude": 16.074425,
      "latitude": 108.218102,
      "books": [
        {
          "id": 1,
          "title": "地球の歩き方ゴールドコースト&ケアンズ 2020 2021",
          "price": "2,200円",
          "author": "川野 ひろし (著)",
          "rating": 3.7,
          "tag": [
            {
              "id": 1,
              "name": "#英会話"
            },
            {
              "id": 2,
              "name": "#実用的"
            },
            {
              "id": 3,
              "name": "#わかりにくい"
            }
          ],
          "release_date": "2017/4/22",
          "poster_url": "https://m.media-amazon.com/images/I/61yUbi86seL._SY466_.jpg",
          "is_marked": false,
          "store": [
            {
              "id": 1,
              "name": "代官山 蔦屋書店",
              "zip_code": "T150-0033",
              "address": "東京都渋谷区猿楽町16-15",
              "picture": "https://store.tsite.jp/static_contents/site/tsite/daikanyama/img/og.jpg"
            },
            {
              "id": 2,
              "name": "銀座 蔦屋書店",
              "zip_code": "T104-0061",
              "address": "東京都 中央区 銀座トウキョウト チュウオウク ギンザ",
              "picture": "https://store.tsite.jp/static_contents/site/tsite/ginza/img/about/key.jpg"
            },
            {
              "id": 3,
              "name": "#英会話",
              "zip_code": "T150-0033",
              "address": "羽田空港",
              "picture": "https://store.tsite.jp/static_contents/site/tsite/haneda-airport/img/about/key.jpg?time=200324"
            }
          ]
        },
        {
          "id": 2,
          "title": "G'day Mate! 旅で役立つオーストラリア英会話",
          "price": "2,200円",
          "author": "川野ひろし (著)",
          "rating": 4.1,
          "tag": [
            {
              "id": 1,
              "name": "#英会話"
            },
            {
              "id": 2,
              "name": "#実用的"
            },
            {
              "id": 3,
              "name": "#わかりにくい"
            }
          ],
          "release_date": "2021/1/12",
          "poster_url": "https://m.media-amazon.com/images/I/51M-mYD6kYL._SY445_SX342_.jpg",
          "is_marked": false,
          "store": [
            {
              "id": 1,
              "name": "代官山 蔦屋書店",
              "zip_code": "T150-0033",
              "address": "東京都渋谷区猿楽町16-15",
              "picture": "https://store.tsite.jp/static_contents/site/tsite/daikanyama/img/og.jpg"
            },
            {
              "id": 2,
              "name": "銀座 蔦屋書店",
              "zip_code": "T104-0061",
              "address": "東京都 中央区 銀座トウキョウト チュウオウク ギンザ",
              "picture": "https://store.tsite.jp/static_contents/site/tsite/ginza/img/about/key.jpg"
            },
            {
              "id": 3,
              "name": "#英会話",
              "zip_code": "T150-0033",
              "address": "羽田空港",
              "picture": "https://store.tsite.jp/static_contents/site/tsite/haneda-airport/img/about/key.jpg?time=200324"
            }
          ]
        }
      ]
    },
    {
      "id": 2,
      "name": "銀座 蔦屋書店",
      "zip_code": "T104-0061",
      "address": "東京都 中央区 銀座トウキョウト チュウオウク ギンザ",
      "picture": "https://store.tsite.jp/static_contents/site/tsite/ginza/img/about/key.jpg",
      "longitude": 16.074311,
      "latitude": 108.217683,
      "books": [
        {
          "id": 1,
          "title": "地球の歩き方ゴールドコースト&ケアンズ 2020 2021",
          "price": "2,200円",
          "author": "川野 ひろし (著)",
          "rating": 3.7,
          "tag": [
            {
              "id": 1,
              "name": "#英会話"
            },
            {
              "id": 2,
              "name": "#実用的"
            },
            {
              "id": 3,
              "name": "#わかりにくい"
            }
          ],
          "release_date": "2017/4/22",
          "poster_url": "https://m.media-amazon.com/images/I/61yUbi86seL._SY466_.jpg",
          "is_marked": false,
          "store": [
            {
              "id": 1,
              "name": "代官山 蔦屋書店",
              "zip_code": "T150-0033",
              "address": "東京都渋谷区猿楽町16-15",
              "picture": "https://store.tsite.jp/static_contents/site/tsite/daikanyama/img/og.jpg"
            },
            {
              "id": 2,
              "name": "銀座 蔦屋書店",
              "zip_code": "T104-0061",
              "address": "東京都 中央区 銀座トウキョウト チュウオウク ギンザ",
              "picture": "https://store.tsite.jp/static_contents/site/tsite/ginza/img/about/key.jpg"
            },
            {
              "id": 3,
              "name": "#英会話",
              "zip_code": "T150-0033",
              "address": "羽田空港",
              "picture": "https://store.tsite.jp/static_contents/site/tsite/haneda-airport/img/about/key.jpg?time=200324"
            }
          ]
        },
        {
          "id": 2,
          "title": "G'day Mate! 旅で役立つオーストラリア英会話",
          "price": "2,200円",
          "author": "川野ひろし (著)",
          "rating": 4.1,
          "tag": [
            {
              "id": 1,
              "name": "#英会話"
            },
            {
              "id": 2,
              "name": "#実用的"
            },
            {
              "id": 3,
              "name": "#わかりにくい"
            }
          ],
          "release_date": "2021/1/12",
          "poster_url": "https://m.media-amazon.com/images/I/51M-mYD6kYL._SY445_SX342_.jpg",
          "is_marked": false,
          "store": [
            {
              "id": 1,
              "name": "代官山 蔦屋書店",
              "zip_code": "T150-0033",
              "address": "東京都渋谷区猿楽町16-15",
              "picture": "https://store.tsite.jp/static_contents/site/tsite/daikanyama/img/og.jpg"
            },
            {
              "id": 2,
              "name": "銀座 蔦屋書店",
              "zip_code": "T104-0061",
              "address": "東京都 中央区 銀座トウキョウト チュウオウク ギンザ",
              "picture": "https://store.tsite.jp/static_contents/site/tsite/ginza/img/about/key.jpg"
            },
            {
              "id": 3,
              "name": "#英会話",
              "zip_code": "T150-0033",
              "address": "羽田空港",
              "picture": "https://store.tsite.jp/static_contents/site/tsite/haneda-airport/img/about/key.jpg?time=200324"
            }
          ]
        }
      ]
    },
    {
      "id": 3,
      "name": "#英会話",
      "zip_code": "T150-0033",
      "address": "羽田空港",
      "picture": "https://store.tsite.jp/static_contents/site/tsite/haneda-airport/img/about/key.jpg?time=200324",
      "longitude": 16.074311,
      "latitude": 108.217683,
      "books": [
        {
          "id": 1,
          "title": "地球の歩き方ゴールドコースト&ケアンズ 2020 2021",
          "price": "2,200円",
          "author": "川野 ひろし (著)",
          "rating": 3.7,
          "tag": [
            {
              "id": 1,
              "name": "#英会話"
            },
            {
              "id": 2,
              "name": "#実用的"
            },
            {
              "id": 3,
              "name": "#わかりにくい"
            }
          ],
          "release_date": "2017/4/22",
          "poster_url": "https://m.media-amazon.com/images/I/61yUbi86seL._SY466_.jpg",
          "is_marked": false,
          "store": [
            {
              "id": 1,
              "name": "代官山 蔦屋書店",
              "zip_code": "T150-0033",
              "address": "東京都渋谷区猿楽町16-15",
              "picture": "https://store.tsite.jp/static_contents/site/tsite/daikanyama/img/og.jpg"
            },
            {
              "id": 2,
              "name": "銀座 蔦屋書店",
              "zip_code": "T104-0061",
              "address": "東京都 中央区 銀座トウキョウト チュウオウク ギンザ",
              "picture": "https://store.tsite.jp/static_contents/site/tsite/ginza/img/about/key.jpg"
            },
            {
              "id": 3,
              "name": "#英会話",
              "zip_code": "T150-0033",
              "address": "羽田空港",
              "picture": "https://store.tsite.jp/static_contents/site/tsite/haneda-airport/img/about/key.jpg?time=200324"
            }
          ]
        },
        {
          "id": 2,
          "title": "G'day Mate! 旅で役立つオーストラリア英会話",
          "price": "2,200円",
          "author": "川野ひろし (著)",
          "rating": 4.1,
          "tag": [
            {
              "id": 1,
              "name": "#英会話"
            },
            {
              "id": 2,
              "name": "#実用的"
            },
            {
              "id": 3,
              "name": "#わかりにくい"
            }
          ],
          "release_date": "2021/1/12",
          "poster_url": "https://m.media-amazon.com/images/I/51M-mYD6kYL._SY445_SX342_.jpg",
          "is_marked": false,
          "store": [
            {
              "id": 1,
              "name": "代官山 蔦屋書店",
              "zip_code": "T150-0033",
              "address": "東京都渋谷区猿楽町16-15",
              "picture": "https://store.tsite.jp/static_contents/site/tsite/daikanyama/img/og.jpg"
            },
            {
              "id": 2,
              "name": "銀座 蔦屋書店",
              "zip_code": "T104-0061",
              "address": "東京都 中央区 銀座トウキョウト チュウオウク ギンザ",
              "picture": "https://store.tsite.jp/static_contents/site/tsite/ginza/img/about/key.jpg"
            },
            {
              "id": 3,
              "name": "#英会話",
              "zip_code": "T150-0033",
              "address": "羽田空港",
              "picture": "https://store.tsite.jp/static_contents/site/tsite/haneda-airport/img/about/key.jpg?time=200324"
            }
          ]
        }
      ]
    },
    {
      "id": 4,
      "name": "#英会話",
      "zip_code": "T150-0033",
      "address": "羽田空港",
      "picture": "https://store.tsite.jp/static_contents/site/tsite/haneda-airport/img/about/key.jpg?time=200324",
      "books": [
        {
          "id": 1,
          "title": "地球の歩き方ゴールドコースト&ケアンズ 2020 2021",
          "price": "2,200円",
          "author": "川野 ひろし (著)",
          "rating": 3.7,
          "tag": [
            {
              "id": 1,
              "name": "#英会話"
            },
            {
              "id": 2,
              "name": "#実用的"
            },
            {
              "id": 3,
              "name": "#わかりにくい"
            }
          ],
          "release_date": "2017/4/22",
          "poster_url": "https://m.media-amazon.com/images/I/61yUbi86seL._SY466_.jpg",
          "is_marked": false,
          "store": [
            {
              "id": 1,
              "name": "代官山 蔦屋書店",
              "zip_code": "T150-0033",
              "address": "東京都渋谷区猿楽町16-15",
              "picture": "https://store.tsite.jp/static_contents/site/tsite/daikanyama/img/og.jpg"
            },
            {
              "id": 2,
              "name": "銀座 蔦屋書店",
              "zip_code": "T104-0061",
              "address": "東京都 中央区 銀座トウキョウト チュウオウク ギンザ",
              "picture": "https://store.tsite.jp/static_contents/site/tsite/ginza/img/about/key.jpg"
            },
            {
              "id": 3,
              "name": "#英会話",
              "zip_code": "T150-0033",
              "address": "羽田空港",
              "picture": "https://store.tsite.jp/static_contents/site/tsite/haneda-airport/img/about/key.jpg?time=200324"
            }
          ]
        },
        {
          "id": 2,
          "title": "G'day Mate! 旅で役立つオーストラリア英会話",
          "price": "2,200円",
          "author": "川野ひろし (著)",
          "rating": 4.1,
          "tag": [
            {
              "id": 1,
              "name": "#英会話"
            },
            {
              "id": 2,
              "name": "#実用的"
            },
            {
              "id": 3,
              "name": "#わかりにくい"
            }
          ],
          "release_date": "2021/1/12",
          "poster_url": "https://m.media-amazon.com/images/I/51M-mYD6kYL._SY445_SX342_.jpg",
          "is_marked": false,
          "store": [
            {
              "id": 1,
              "name": "代官山 蔦屋書店",
              "zip_code": "T150-0033",
              "address": "東京都渋谷区猿楽町16-15",
              "picture": "https://store.tsite.jp/static_contents/site/tsite/daikanyama/img/og.jpg"
            },
            {
              "id": 2,
              "name": "銀座 蔦屋書店",
              "zip_code": "T104-0061",
              "address": "東京都 中央区 銀座トウキョウト チュウオウク ギンザ",
              "picture": "https://store.tsite.jp/static_contents/site/tsite/ginza/img/about/key.jpg"
            },
            {
              "id": 3,
              "name": "#英会話",
              "zip_code": "T150-0033",
              "address": "羽田空港",
              "picture": "https://store.tsite.jp/static_contents/site/tsite/haneda-airport/img/about/key.jpg?time=200324"
            }
          ]
        }
      ]
    },
    {
      "id": 5,
      "name": "#英会話",
      "zip_code": "T150-0033",
      "address": "羽田空港",
      "picture": "https://store.tsite.jp/static_contents/site/tsite/haneda-airport/img/about/key.jpg?time=200324",
      "longitude": 16.074682,
      "latitude": 108.219061,
      "books": [
        {
          "id": 1,
          "title": "地球の歩き方ゴールドコースト&ケアンズ 2020 2021",
          "price": "2,200円",
          "author": "川野 ひろし (著)",
          "rating": 3.7,
          "tag": [
            {
              "id": 1,
              "name": "#英会話"
            },
            {
              "id": 2,
              "name": "#実用的"
            },
            {
              "id": 3,
              "name": "#わかりにくい"
            }
          ],
          "release_date": "2017/4/22",
          "poster_url": "https://m.media-amazon.com/images/I/61yUbi86seL._SY466_.jpg",
          "is_marked": false,
          "store": [
            {
              "id": 1,
              "name": "代官山 蔦屋書店",
              "zip_code": "T150-0033",
              "address": "東京都渋谷区猿楽町16-15",
              "picture": "https://store.tsite.jp/static_contents/site/tsite/daikanyama/img/og.jpg"
            },
            {
              "id": 2,
              "name": "銀座 蔦屋書店",
              "zip_code": "T104-0061",
              "address": "東京都 中央区 銀座トウキョウト チュウオウク ギンザ",
              "picture": "https://store.tsite.jp/static_contents/site/tsite/ginza/img/about/key.jpg"
            },
            {
              "id": 3,
              "name": "#英会話",
              "zip_code": "T150-0033",
              "address": "羽田空港",
              "picture": "https://store.tsite.jp/static_contents/site/tsite/haneda-airport/img/about/key.jpg?time=200324"
            }
          ]
        },
        {
          "id": 2,
          "title": "G'day Mate! 旅で役立つオーストラリア英会話",
          "price": "2,200円",
          "author": "川野ひろし (著)",
          "rating": 4.1,
          "tag": [
            {
              "id": 1,
              "name": "#英会話"
            },
            {
              "id": 2,
              "name": "#実用的"
            },
            {
              "id": 3,
              "name": "#わかりにくい"
            }
          ],
          "release_date": "2021/1/12",
          "poster_url": "https://m.media-amazon.com/images/I/51M-mYD6kYL._SY445_SX342_.jpg",
          "is_marked": false,
          "store": [
            {
              "id": 1,
              "name": "代官山 蔦屋書店",
              "zip_code": "T150-0033",
              "address": "東京都渋谷区猿楽町16-15",
              "picture": "https://store.tsite.jp/static_contents/site/tsite/daikanyama/img/og.jpg"
            },
            {
              "id": 2,
              "name": "銀座 蔦屋書店",
              "zip_code": "T104-0061",
              "address": "東京都 中央区 銀座トウキョウト チュウオウク ギンザ",
              "picture": "https://store.tsite.jp/static_contents/site/tsite/ginza/img/about/key.jpg"
            },
            {
              "id": 3,
              "name": "#英会話",
              "zip_code": "T150-0033",
              "address": "羽田空港",
              "picture": "https://store.tsite.jp/static_contents/site/tsite/haneda-airport/img/about/key.jpg?time=200324"
            }
          ]
        }
      ]
    },
    {
      "id": 6,
      "name": "#英会話",
      "zip_code": "T150-0033",
      "address": "羽田空港",
      "picture": "https://store.tsite.jp/static_contents/site/tsite/haneda-airport/img/about/key.jpg?time=200324",
      "longitude": 16.074692,
      "latitude": 108.219071,
      "books": [
        {
          "id": 1,
          "title": "地球の歩き方ゴールドコースト&ケアンズ 2020 2021",
          "price": "2,200円",
          "author": "川野 ひろし (著)",
          "rating": 3.7,
          "tag": [
            {
              "id": 1,
              "name": "#英会話"
            },
            {
              "id": 2,
              "name": "#実用的"
            },
            {
              "id": 3,
              "name": "#わかりにくい"
            }
          ],
          "release_date": "2017/4/22",
          "poster_url": "https://m.media-amazon.com/images/I/61yUbi86seL._SY466_.jpg",
          "is_marked": false,
          "store": [
            {
              "id": 1,
              "name": "代官山 蔦屋書店",
              "zip_code": "T150-0033",
              "address": "東京都渋谷区猿楽町16-15",
              "picture": "https://store.tsite.jp/static_contents/site/tsite/daikanyama/img/og.jpg"
            },
            {
              "id": 2,
              "name": "銀座 蔦屋書店",
              "zip_code": "T104-0061",
              "address": "東京都 中央区 銀座トウキョウト チュウオウク ギンザ",
              "picture": "https://store.tsite.jp/static_contents/site/tsite/ginza/img/about/key.jpg"
            },
            {
              "id": 3,
              "name": "#英会話",
              "zip_code": "T150-0033",
              "address": "羽田空港",
              "picture": "https://store.tsite.jp/static_contents/site/tsite/haneda-airport/img/about/key.jpg?time=200324"
            }
          ]
        },
        {
          "id": 2,
          "title": "G'day Mate! 旅で役立つオーストラリア英会話",
          "price": "2,200円",
          "author": "川野ひろし (著)",
          "rating": 4.1,
          "tag": [
            {
              "id": 1,
              "name": "#英会話"
            },
            {
              "id": 2,
              "name": "#実用的"
            },
            {
              "id": 3,
              "name": "#わかりにくい"
            }
          ],
          "release_date": "2021/1/12",
          "poster_url": "https://m.media-amazon.com/images/I/51M-mYD6kYL._SY445_SX342_.jpg",
          "is_marked": false,
          "store": [
            {
              "id": 1,
              "name": "代官山 蔦屋書店",
              "zip_code": "T150-0033",
              "address": "東京都渋谷区猿楽町16-15",
              "picture": "https://store.tsite.jp/static_contents/site/tsite/daikanyama/img/og.jpg"
            },
            {
              "id": 2,
              "name": "銀座 蔦屋書店",
              "zip_code": "T104-0061",
              "address": "東京都 中央区 銀座トウキョウト チュウオウク ギンザ",
              "picture": "https://store.tsite.jp/static_contents/site/tsite/ginza/img/about/key.jpg"
            },
            {
              "id": 3,
              "name": "#英会話",
              "zip_code": "T150-0033",
              "address": "羽田空港",
              "picture": "https://store.tsite.jp/static_contents/site/tsite/haneda-airport/img/about/key.jpg?time=200324"
            }
          ]
        }
      ]
    },
    {
      "id": 7,
      "name": "#英会話",
      "zip_code": "T150-0033",
      "address": "羽田空港",
      "picture": "https://store.tsite.jp/static_contents/site/tsite/haneda-airport/img/about/key.jpg?time=200324",
      "longitude": 16.074702,
      "latitude": 108.219081,
      "books": [
        {
          "id": 1,
          "title": "地球の歩き方ゴールドコースト&ケアンズ 2020 2021",
          "price": "2,200円",
          "author": "川野 ひろし (著)",
          "rating": 3.7,
          "tag": [
            {
              "id": 1,
              "name": "#英会話"
            },
            {
              "id": 2,
              "name": "#実用的"
            },
            {
              "id": 3,
              "name": "#わかりにくい"
            }
          ],
          "release_date": "2017/4/22",
          "poster_url": "https://m.media-amazon.com/images/I/61yUbi86seL._SY466_.jpg",
          "is_marked": false,
          "store": [
            {
              "id": 1,
              "name": "代官山 蔦屋書店",
              "zip_code": "T150-0033",
              "address": "東京都渋谷区猿楽町16-15",
              "picture": "https://store.tsite.jp/static_contents/site/tsite/daikanyama/img/og.jpg"
            },
            {
              "id": 2,
              "name": "銀座 蔦屋書店",
              "zip_code": "T104-0061",
              "address": "東京都 中央区 銀座トウキョウト チュウオウク ギンザ",
              "picture": "https://store.tsite.jp/static_contents/site/tsite/ginza/img/about/key.jpg"
            },
            {
              "id": 3,
              "name": "#英会話",
              "zip_code": "T150-0033",
              "address": "羽田空港",
              "picture": "https://store.tsite.jp/static_contents/site/tsite/haneda-airport/img/about/key.jpg?time=200324"
            }
          ]
        },
        {
          "id": 2,
          "title": "G'day Mate! 旅で役立つオーストラリア英会話",
          "price": "2,200円",
          "author": "川野ひろし (著)",
          "rating": 4.1,
          "tag": [
            {
              "id": 1,
              "name": "#英会話"
            },
            {
              "id": 2,
              "name": "#実用的"
            },
            {
              "id": 3,
              "name": "#わかりにくい"
            }
          ],
          "release_date": "2021/1/12",
          "poster_url": "https://m.media-amazon.com/images/I/51M-mYD6kYL._SY445_SX342_.jpg",
          "is_marked": false,
          "store": [
            {
              "id": 1,
              "name": "代官山 蔦屋書店",
              "zip_code": "T150-0033",
              "address": "東京都渋谷区猿楽町16-15",
              "picture": "https://store.tsite.jp/static_contents/site/tsite/daikanyama/img/og.jpg"
            },
            {
              "id": 2,
              "name": "銀座 蔦屋書店",
              "zip_code": "T104-0061",
              "address": "東京都 中央区 銀座トウキョウト チュウオウク ギンザ",
              "picture": "https://store.tsite.jp/static_contents/site/tsite/ginza/img/about/key.jpg"
            },
            {
              "id": 3,
              "name": "#英会話",
              "zip_code": "T150-0033",
              "address": "羽田空港",
              "picture": "https://store.tsite.jp/static_contents/site/tsite/haneda-airport/img/about/key.jpg?time=200324"
            }
          ]
        }
      ]
    },
    {
      "id": 8,
      "name": "#英会話",
      "zip_code": "T150-0033",
      "address": "羽田空港",
      "picture": "https://store.tsite.jp/static_contents/site/tsite/haneda-airport/img/about/key.jpg?time=200324",
      "longitude": 16.074612,
      "latitude": 108.219021,
      "books": [
        {
          "id": 1,
          "title": "地球の歩き方ゴールドコースト&ケアンズ 2020 2021",
          "price": "2,200円",
          "author": "川野 ひろし (著)",
          "rating": 3.7,
          "tag": [
            {
              "id": 1,
              "name": "#英会話"
            },
            {
              "id": 2,
              "name": "#実用的"
            },
            {
              "id": 3,
              "name": "#わかりにくい"
            }
          ],
          "release_date": "2017/4/22",
          "poster_url": "https://m.media-amazon.com/images/I/61yUbi86seL._SY466_.jpg",
          "is_marked": false,
          "store": [
            {
              "id": 1,
              "name": "代官山 蔦屋書店",
              "zip_code": "T150-0033",
              "address": "東京都渋谷区猿楽町16-15",
              "picture": "https://store.tsite.jp/static_contents/site/tsite/daikanyama/img/og.jpg"
            },
            {
              "id": 2,
              "name": "銀座 蔦屋書店",
              "zip_code": "T104-0061",
              "address": "東京都 中央区 銀座トウキョウト チュウオウク ギンザ",
              "picture": "https://store.tsite.jp/static_contents/site/tsite/ginza/img/about/key.jpg"
            },
            {
              "id": 3,
              "name": "#英会話",
              "zip_code": "T150-0033",
              "address": "羽田空港",
              "picture": "https://store.tsite.jp/static_contents/site/tsite/haneda-airport/img/about/key.jpg?time=200324"
            }
          ]
        },
        {
          "id": 2,
          "title": "G'day Mate! 旅で役立つオーストラリア英会話",
          "price": "2,200円",
          "author": "川野ひろし (著)",
          "rating": 4.1,
          "tag": [
            {
              "id": 1,
              "name": "#英会話"
            },
            {
              "id": 2,
              "name": "#実用的"
            },
            {
              "id": 3,
              "name": "#わかりにくい"
            }
          ],
          "release_date": "2021/1/12",
          "poster_url": "https://m.media-amazon.com/images/I/51M-mYD6kYL._SY445_SX342_.jpg",
          "is_marked": false,
          "store": [
            {
              "id": 1,
              "name": "代官山 蔦屋書店",
              "zip_code": "T150-0033",
              "address": "東京都渋谷区猿楽町16-15",
              "picture": "https://store.tsite.jp/static_contents/site/tsite/daikanyama/img/og.jpg"
            },
            {
              "id": 2,
              "name": "銀座 蔦屋書店",
              "zip_code": "T104-0061",
              "address": "東京都 中央区 銀座トウキョウト チュウオウク ギンザ",
              "picture": "https://store.tsite.jp/static_contents/site/tsite/ginza/img/about/key.jpg"
            },
            {
              "id": 3,
              "name": "#英会話",
              "zip_code": "T150-0033",
              "address": "羽田空港",
              "picture": "https://store.tsite.jp/static_contents/site/tsite/haneda-airport/img/about/key.jpg?time=200324"
            }
          ]
        }
      ]
    },
    {
      "id": 9,
      "name": "#英会話",
      "zip_code": "T150-0033",
      "address": "羽田空港",
      "picture": "https://store.tsite.jp/static_contents/site/tsite/haneda-airport/img/about/key.jpg?time=200324",
      "longitude": 16.074182,
      "latitude": 108.219761,
      "books": [
        {
          "id": 1,
          "title": "地球の歩き方ゴールドコースト&ケアンズ 2020 2021",
          "price": "2,200円",
          "author": "川野 ひろし (著)",
          "rating": 3.7,
          "tag": [
            {
              "id": 1,
              "name": "#英会話"
            },
            {
              "id": 2,
              "name": "#実用的"
            },
            {
              "id": 3,
              "name": "#わかりにくい"
            }
          ],
          "release_date": "2017/4/22",
          "poster_url": "https://m.media-amazon.com/images/I/61yUbi86seL._SY466_.jpg",
          "is_marked": false,
          "store": [
            {
              "id": 1,
              "name": "代官山 蔦屋書店",
              "zip_code": "T150-0033",
              "address": "東京都渋谷区猿楽町16-15",
              "picture": "https://store.tsite.jp/static_contents/site/tsite/daikanyama/img/og.jpg"
            },
            {
              "id": 2,
              "name": "銀座 蔦屋書店",
              "zip_code": "T104-0061",
              "address": "東京都 中央区 銀座トウキョウト チュウオウク ギンザ",
              "picture": "https://store.tsite.jp/static_contents/site/tsite/ginza/img/about/key.jpg"
            },
            {
              "id": 3,
              "name": "#英会話",
              "zip_code": "T150-0033",
              "address": "羽田空港",
              "picture": "https://store.tsite.jp/static_contents/site/tsite/haneda-airport/img/about/key.jpg?time=200324"
            }
          ]
        },
        {
          "id": 2,
          "title": "G'day Mate! 旅で役立つオーストラリア英会話",
          "price": "2,200円",
          "author": "川野ひろし (著)",
          "rating": 4.1,
          "tag": [
            {
              "id": 1,
              "name": "#英会話"
            },
            {
              "id": 2,
              "name": "#実用的"
            },
            {
              "id": 3,
              "name": "#わかりにくい"
            }
          ],
          "release_date": "2021/1/12",
          "poster_url": "https://m.media-amazon.com/images/I/51M-mYD6kYL._SY445_SX342_.jpg",
          "is_marked": false,
          "store": [
            {
              "id": 1,
              "name": "代官山 蔦屋書店",
              "zip_code": "T150-0033",
              "address": "東京都渋谷区猿楽町16-15",
              "picture": "https://store.tsite.jp/static_contents/site/tsite/daikanyama/img/og.jpg"
            },
            {
              "id": 2,
              "name": "銀座 蔦屋書店",
              "zip_code": "T104-0061",
              "address": "東京都 中央区 銀座トウキョウト チュウオウク ギンザ",
              "picture": "https://store.tsite.jp/static_contents/site/tsite/ginza/img/about/key.jpg"
            },
            {
              "id": 3,
              "name": "#英会話",
              "zip_code": "T150-0033",
              "address": "羽田空港",
              "picture": "https://store.tsite.jp/static_contents/site/tsite/haneda-airport/img/about/key.jpg?time=200324"
            }
          ]
        }
      ]
    }
  ]
}
